{
  "type": "subway",
  "poi": [
    {
      "lat": 39.99958932579466,
      "lng": 116.38640191465284,
      "id": "9915",
      "name": "奥林匹克公园"
    },
    {
      "lat": 39.931576007560324,
      "lng": 116.31957424227815,
      "id": "9906",
      "name": "白石桥南"
    },
    {
      "lat": 39.863462603735115,
      "lng": 116.37278280425956,
      "id": "9904",
      "name": "北京南站"
    },
    {
      "lat": 39.89369635491953,
      "lng": 116.31501940581441,
      "id": "9907",
      "name": "北京西站"
    },
    {
      "lat": 39.92322505351942,
      "lng": 116.42759310280131,
      "id": "9906",
      "name": "朝阳门"
    },
    {
      "lat": 39.97489346388824,
      "lng": 116.34766648949031,
      "chineseName": "西土城",
      "id": "185",
      "name": "Xitucheng"
    },
    {
      "lat":39.98379398340073,
      "lng":116.47541116316992,
      "id": "9814",
      "name": "望京南"
    },
    {
      "lat": 39.89894502923771,
      "lng": 116.41234469810605,
      "id": "9905",
      "name": "崇文门"
    },
    {
      "lat": 39.931872283881565,
      "lng": 116.2886411463859,
      "id": "9910",
      "name": "慈寿寺"
    },
    {
      "lat": 39.89184342699713,
      "lng": 116.41328695358621,
      "id": "9907",
      "name": "磁器口"
    },
    {
      "lat": 40.00243901244792,
      "lng": 116.41121942598774,
      "id": "9905",
      "name": "大屯路东"
    },
    {
      "lat": 39.9073131958861,
      "lng": 116.46969716735711,
      "id": "9901",
      "name": "大望路"
    },
    {
      "lat": 39.90688432394277,
      "lng": 116.41184019849574,
      "id": "9901",
      "name": "东单"
    },
    {
      "lat": 39.94001731092852,
      "lng": 116.42754488182823,
      "id": "9913",
      "name": "东直门"
    },
    {
      "lat": 39.9058730723916,
      "lng": 116.35096589550277,
      "id": "9902",
      "name": "复兴门"
    },
    {
      "lat": 39.90621927610504,
      "lng": 116.30400203951143,
      "id": "9910",
      "name": "公主坟"
    },
    {
      "lat": 39.94757202999116,
      "lng": 116.38735146060533,
      "id": "9908",
      "name": "鼓楼大街"
    },
    {
      "lat": 39.813449588651146,
      "lng": 116.29588404208396,
      "id": "9037",
      "name": "郭公庄"
    },
    {
      "lat": 39.90807369128916,
      "lng": 116.45505120341657,
      "id": "9910",
      "name": "国贸"
    },
    {
      "lat": 39.97471933468877,
      "lng": 116.3116797126962,
      "id": "9910",
      "name": "海淀黄庄"
    },
    {
      "lat": 39.92199669457453,
      "lng": 116.4554770233883,
      "id": "9910",
      "name": "呼家楼"
    },
    {
      "lat": 39.975652207774154,
      "lng": 116.41134096089897,
      "id": "9905",
      "name": "惠新西街南口"
    },
    {
      "lat": 40.07063576286542,
      "lng": 116.35391924114315,
      "id": "9908",
      "name": "霍营"
    },
    {
      "lat": 39.907226599480225,
      "lng": 116.42903121360841,
      "id": "9902",
      "name": "建国门"
    },
    {
      "lat": 39.92166989603046,
      "lng": 116.47238392325822,
      "id": "9814",
      "name": "金台路"
    },
    {
      "lat": 40.05163279735245,
      "lng": 116.40615318235317,
      "id": "9905",
      "name": "立水桥"
    },
    {
      "lat": 39.87889682383406,
      "lng": 116.29696078377607,
      "id": "9910",
      "name": "六里桥"
    },
    {
      "lat": 39.931532662915466,
      "lng": 116.36495140063678,
      "id": "9904",
      "name": "平安里"
    },
    {
      "lat": 39.86419518565544,
      "lng": 116.41547346860615,
      "id": "9905",
      "name": "蒲黄榆"
    },
    {
      "lat": 39.95942399621527,
      "lng": 116.45065880573767,
      "id": "9052",
      "name": "三元桥"
    },
    {
      "lat": 39.97677248635564,
      "lng": 116.4300729909759,
      "id": "9913",
      "name": "芍药居"
    },
    {
      "lat": 39.84455602832767,
      "lng": 116.42217297838026,
      "id": "9099",
      "name": "宋家庄"
    },
    {
      "lat": 39.997801301778716,
      "lng": 116.46173,
      "id": "9814",
      "name": "望京"
    },
    {
      "lat": 39.92267627600288,
      "lng": 116.31962425023586,
      "chineseName": "白堆子",
      "id": "166",
      "name": "Baidongzi"
    },
    {
      "lat": 39.90583439327916,
      "lng": 116.36768357606542,
      "id": "9904",
      "name": "西单"
    },
    {
      "lat": 40.051576691504835,
      "lng": 116.30005223381279,
      "id": "9913",
      "name": "西二旗"
    },
    {
      "lat": 39.94037549110604,
      "lng": 116.34700590966823,
      "id": "9913",
      "name": "西直门"
    },
    {
      "lat": 39.94702169449124,
      "lng": 116.4103457188912,
      "id": "9905",
      "name": "雍和宫"
    },
    {
      "lat": 40.103044112922184,
      "lng": 116.30749472752449,
      "id": "9908",
      "name": "朱辛庄"
    }
  ]
}